{"hospitals":[{"coordinates": [-71.10737910445549, 42.30025000839615], "zip": "02130", "name": "Lemuel Shattuck Hospital", "neighborhood": "ROSLINDALE"}, {"coordinates": [-71.08983000035408, 42.3438499996779], "zip": "02115", "name": "Beth Israel Deaconess Medical Center East Cam", "neighborhood": "FENWAY/KENMORE"}, {"coordinates": [-71.09165569529381, 42.31856289432221], "zip": "02119", "name": "Jewish Memorial Hospital", "neighborhood": "ROXBURY"}, {"coordinates": [-71.10616871232227, 42.329611374844326], "zip": "02120", "name": "New England Baptist Hospital", "neighborhood": "JAMAICA PLAIN"}, {"coordinates": [-71.08168028446168, 42.27137912172521], "zip": "02126", "name": "Boston Specialty & Rehabilitation Hospital", "neighborhood": "MATTAPAN"}, {"coordinates": [-71.07139912234962, 42.3371094801158], "zip": "02118", "name": "Boston Medical Center", "neighborhood": "SOUTH END"}, {"coordinates": [-71.10616871232227, 42.329611374844326], "zip": "02120", "name": "Va Hospital", "neighborhood": "JAMAICA PLAIN"}, {"coordinates": [-71.07043169540236, 42.36297141612903], "zip": "02114", "name": "Massachusetts Eye & Ear Infirmary", "neighborhood": "CENTRAL"}, {"coordinates": [-71.14136122385321, 42.34665771451756], "zip": "02135", "name": "Kindred Hospital", "neighborhood": "ALLSTON/BRIGHTON"}, {"coordinates": [-71.10741054246668, 42.33587602903896], "zip": "02115", "name": "Brigham And Women's Hospital", "neighborhood": "FENWAY/KENMORE"}, {"coordinates": [-71.06631280050811, 42.27854306401838], "zip": "02124", "name": "Carney Hospital", "neighborhood": "DORCHESTER"}, {"coordinates": [-71.0634111017112, 42.349946522039204], "zip": "02111", "name": "New England Medical Center", "neighborhood": "CENTRAL"}, {"coordinates": [-71.12789683059322, 42.30021828265608], "zip": "02130", "name": "Faulkner Hospital", "neighborhood": "JAMAICA PLAIN"}, {"coordinates": [-71.14822103232248, 42.349656455743144], "zip": "02135", "name": "St. Elizabeth's Hospital", "neighborhood": "ALLSTON/BRIGHTON"}, {"coordinates": [-71.17245195460838, 42.27598935537618], "zip": "02132", "name": "VA Hospital", "neighborhood": "WEST ROXBURY"}, {"coordinates": [-71.0668523937257, 42.36327718561898], "zip": "02114", "name": "Shriners Burns Institute", "neighborhood": "CENTRAL"}, {"coordinates": [-71.10472284437952, 42.337592548462226], "zip": "02115", "name": "Children's Hospital", "neighborhood": "FENWAY/KENMORE"}, {"coordinates": [-71.11272670363542, 42.31617666213941], "zip": "02130", "name": "Arbour Hospital", "neighborhood": "JAMAICA PLAIN"}, {"coordinates": [-71.13150465441208, 42.29738386053219], "zip": "02131", "name": "Hebrew Rehabilitation Center", "neighborhood": "ROSLINDALE"}, {"coordinates": [-71.06406449543488, 42.314030311294516], "zip": "02125", "name": "St. Margaret's Hospital For Women", "neighborhood": "DORCHESTER"}, {"coordinates": [-71.06564730220646, 42.36764789068138], "zip": "02114", "name": "Spaulding Rehabilitation Hospital", "neighborhood": "CENTRAL"}, {"coordinates": [-71.13281000028115, 42.352620000312925], "zip": "02134", "name": "Franciscan Children's  Hospital", "neighborhood": "ALLSTON/BRIGHTON"}, {"coordinates": [-71.10940050507557, 42.3385289546495], "zip": "02215", "name": "Beth Israel Deaconess Medical Center West Cam", "neighborhood": "FENWAY/KENMORE"}, {"coordinates": [-71.1071702648531, 42.33734993862189], "zip": "02115", "name": "Dana-farber Cancer Institute", "neighborhood": "FENWAY/KENMORE"}, {"coordinates": [-71.06924724545246, 42.36247485742686], "zip": "02114", "name": "Massachusetts General Hospital", "neighborhood": "CENTRAL"}, {"coordinates": [-71.07378404269969, 42.335925371008436], "zip": "02118", "name": "Boston City Hospital", "neighborhood": "SOUTH END"}]}